{
  "landfills": [
    {
      "name": "Republic Services of Atlanta",
      "street": "3045 Donald Lee Hollowell Parkway Northwest",
      "city": "Woodstock",
      "state": "Georgia",
      "zipcode": null,
      "latitude": 33.784,
      "longitude": -84.487,
      "active": true,
      "user_id": "61c7483607e4533869b9ec08",
      "region_id": "61ca3cb19e9ade7351418e30",
      "id": "61df1fe6ce6ef8453ff05525"
    },
    {
      "name": "Doraville Transfer Station",
      "street": "2784 Woodwin Rd,",
      "city": "Atlanta",
      "state": "Georgia",
      "zipcode": 30360,
      "latitude": 33.918,
      "longitude": -84.275,
      "active": true,
      "user_id": "61c7483607e4533869b9ec08",
      "region_id": "61ca3cb19e9ade7351418e30",
      "id": "61df1fe6ce6ef8453ff05523"
    },
    {
      "name": "Cobb County Landfill",
      "street": "1775 County Services Pkwy SW",
      "city": "Marietta",
      "state": "Georgia",
      "zipcode": 30338,
      "latitude": 33.907,
      "longitude": -84.581,
      "active": true,
      "user_id": "61c7483607e4533869b9ec08",
      "region_id": "61ca3cb19e9ade7351418e30",
      "id": "61df1fe6ce6ef8453ff05524"
    }
  ],
  "depots": [
    {
      "name": "Depot 2",
      "street": "2021, Dahlonega Highway",
      "city": "Cumming",
      "state": "Georgia",
      "zipcode": 30040,
      "latitude": 34.25,
      "longitude": -84.111,
      "active": true,
      "user_id": "61c7483607e4533869b9ec08",
      "region_id": "61ca3cb19e9ade7351418e30",
      "id": "61cdeb3f291ff09681e49c09"
    },
    {
      "name": "Depot 2",
      "street": "1280 Peachtree St NE",
      "city": "Atlanta",
      "state": "Georgia",
      "zipcode": 30309,
      "latitude": 33.79,
      "longitude": -84.389,
      "active": true,
      "user_id": "61c7483607e4533869b9ec08",
      "region_id": "61ca3cb19e9ade7351418e30",
      "id": "61cdeb3f291ff09681e49c08"
    },
    {
      "name": "Depot 3",
      "street": "4703 Cambridge Dr.",
      "city": "Atlanta ",
      "state": "Georgia",
      "zipcode": 30338,
      "latitude": 33.935,
      "longitude": -84.318,
      "active": false,
      "region_id": "61ca3cb19e9ade7351418e30",
      "user_id": "61c7483607e4533869b9ec08",
      "id": "61e1ad5bfae043001da9a89c"
    }
  ],
  "vehicles": [
    {
      "start_depot": {
        "name": "Depot 2",
        "street": "2021, Dahlonega Highway",
        "city": "Cumming",
        "state": "Georgia",
        "zipcode": 30040,
        "latitude": 34.25,
        "longitude": -84.111,
        "active": true,
        "user_id": "61c7483607e4533869b9ec08",
        "region_id": "61ca3cb19e9ade7351418e30",
        "id": "61cdeb3f291ff09681e49c09"
      },
      "end_depot": {
        "name": "Depot 2",
        "street": "1280 Peachtree St NE",
        "city": "Atlanta",
        "state": "Georgia",
        "zipcode": 30309,
        "latitude": 33.79,
        "longitude": -84.389,
        "active": true,
        "user_id": "61c7483607e4533869b9ec08",
        "region_id": "61ca3cb19e9ade7351418e30",
        "id": "61cdeb3f291ff09681e49c08"
      },
      "license_number": "TTXDVG",
      "size": 50,
      "active": false,
      "user_id": "61c7483607e4533869b9ec08",
      "region_id": "61ca3cb19e9ade7351418e30",
      "id": "61df1fe6ce6ef8453ff05539"
    },
    {
      "license_number": "XDFD",
      "size": 50,
      "start_depot": {
        "name": "Depot 2",
        "street": "2021, Dahlonega Highway",
        "city": "Cumming",
        "state": "Georgia",
        "zipcode": 30040,
        "latitude": 34.25,
        "longitude": -84.111,
        "active": true,
        "user_id": "61c7483607e4533869b9ec08",
        "region_id": "61ca3cb19e9ade7351418e30",
        "id": "61cdeb3f291ff09681e49c09"
      },
      "active": true,
      "region_id": "61ca3cb19e9ade7351418e30",
      "user_id": "61c7483607e4533869b9ec08",
      "end_depot": null,
      "id": "61df227eb1db6c4691ac632e"
    }
  ],
  "orders": [
    {
      "delivery_time": {
        "hour": 12,
        "minute": 35,
        "am_pm": "AM"
      },
      "pickup_time": {
        "hour": 5,
        "minute": 45,
        "am_pm": "PM"
      },
      "name": "John",
      "email": "forestschwrtz@gmail.com",
      "phone_number": "404-617-9402",
      "street": "4703 Cambridge Dr.",
      "city": "Atlanta",
      "state": "Georgia",
      "zipcode": 30338,
      "latitude": 33.935,
      "longitude": -84.318,
      "dumpster_size": 30,
      "delivery_date": "Thu Dec 30 2021",
      "pickup_date": "Fri Dec 31 2021",
      "special_instructions": "Please come early",
      "delivery_completed": false,
      "pickup_completed": false,
      "user_id": "61c7483607e4533869b9ec08",
      "region_id": "61ca3cb19e9ade7351418e30",
      "id": "61df1fe7ce6ef8453ff0553f"
    },
    {
      "delivery_time": {
        "hour": 12,
        "minute": 35,
        "am_pm": "AM"
      },
      "pickup_time": {
        "hour": 5,
        "minute": 45,
        "am_pm": "PM"
      },
      "name": "Daniel Carusi",
      "email": "d.carusi@gmail.com",
      "phone_number": "485-859-8569",
      "street": "690 Olde Rope Mill Park Rd",
      "city": "Woodstock",
      "state": "Georgia",
      "zipcode": 30188,
      "latitude": 34.131,
      "longitude": -84.523,
      "dumpster_size": 30,
      "delivery_date": "Thu Dec 30 2021",
      "pickup_date": "Wed Jan 05 2022",
      "special_instructions": "Please come early",
      "delivery_completed": false,
      "pickup_completed": false,
      "user_id": "61c7483607e4533869b9ec08",
      "region_id": "61ca3cb19e9ade7351418e30",
      "id": "61df1fe7ce6ef8453ff05541"
    },
    {
      "name": "Jack Harlow",
      "street": "239 Cedar Ln , ",
      "city": "Covington",
      "email": "jack.harlow@gmail.com",
      "phone_number": "404-586-9856",
      "dumpster_size": 10,
      "delivery_date": "Thu Dec 30 2021",
      "pickup_date": "Sat Jan 01 2022",
      "state": "GA ",
      "special_instructions": "",
      "delivery_completed": false,
      "pickup_completed": false,
      "zipcode": 30014,
      "latitude": 33.607,
      "longitude": -83.759,
      "region_id": "61ca3cb19e9ade7351418e30",
      "user_id": "61c7483607e4533869b9ec08",
      "id": "61df2dd965670e4acd9cd14f"
    }
  ]
}