[{"name": "Beltmann Moving and Storage", "street": "4897 Lewis Rd C", "city": " Stone Mountain", "state": "Georgia", "lat": 33.8284676, "lng": -84.1884492}, {"name": "LaMar Business Services, Inc", "street": "330 Kenilworth Cir", "city": " Stone Mountain", "state": "Georgia", "lat": 33.7984749, "lng": -84.1886284}, {"name": "local billboards", "street": "1046 Mariners Ct", "city": " Stone Mountain", "state": "Georgia", "lat": 33.8096719, "lng": -84.1941547}, {"name": "GW4CP Services LLC", "street": "4705 Hairston Crossing Rd", "city": " Stone Mountain", "state": "Georgia", "lat": 33.7971996, "lng": -84.1972265}, {"name": "RE/MAX Metro Atlanta", "street": "2749 Lavista Rd", "city": " Decatur", "state": "Georgia", "lat": 33.8239345, "lng": -84.2939021}, {"name": "Print N Signs", "street": "2968 N Decatur Rd", "city": " Decatur", "state": "Georgia", "lat": 33.7940424, "lng": -84.2713538}, {"name": "RE/MAX Metro Atlanta", "street": "2749 Lavista Rd", "city": " Decatur", "state": "Georgia", "lat": 33.8239345, "lng": -84.2939021}, {"name": "FedEx Office Print & Ship Center", "street": "2088 N Decatur Rd Suite A", "city": " Decatur", "state": "Georgia", "lat": 33.7908572, "lng": -84.3065706}, {"name": "Solid Knot Bookkeeping & Financial Services, LLC", "street": "4222 GA-142", "city": " Newborn", "state": "Georgia", "lat": 33.5161931, "lng": -83.6950462}, {"name": "Home Builders of Georgia", "street": "3510 Concord Rd", "city": " Newborn", "state": "Georgia", "lat": 33.4559, "lng": -83.6761159}, {"name": "Steel Designs Unlimited", "street": "110 Pitts Chapel Rd", "city": " Newborn", "state": "Georgia", "lat": 33.5111636, "lng": -83.6978886}]