[
  {
    "name": "Depot 1",
    "street": "2021, Dahlonega Highway",
    "city": "Cumming",
    "state": "Georgia",
    "zipcode": 30040,
    "latitude": 34.25,
    "longitude": -84.111,
    "active": true,
    "user_id": "61c7483607e4533869b9ec08",
    "region_id": "61ca3cb19e9ade7351418e30",
    "type": "Depot",
    "id": "61cdeb3f291ff09681e49c09"
  },
  {
    "delivery_time": {
      "hour": 12,
      "minute": 35,
      "am_pm": "AM"
    },
    "pickup_time": {
      "hour": 5,
      "minute": 45,
      "am_pm": "PM"
    },
    "name": "Forest Schwartz",
    "email": "forestschwrtz@gmail.com",
    "phone_number": "404-617-9402",
    "street": "4703 Cambridge Dr.",
    "city": "Atlanta",
    "state": "Georgia",
    "zipcode": 30338,
    "latitude": 33.935,
    "longitude": -84.318,
    "dumpster_size": 15,
    "delivery_date": "Thu Dec 30 2021",
    "pickup_date": "Fri Dec 31 2021",
    "special_instructions": "Please come early",
    "delivery_completed": false,
    "pickup_completed": false,
    "user_id": "61c7483607e4533869b9ec08",
    "region_id": "61ca3cb19e9ade7351418e30",
    "type": "Order",
    "id": "62081ecb372c3b1526d69e13",
    "order_type": "Delivery"
  },
  {
    "delivery_time": {
      "hour": 12,
      "minute": 35,
      "am_pm": "AM"
    },
    "pickup_time": {
      "hour": 5,
      "minute": 45,
      "am_pm": "PM"
    },
    "name": "Josh Rodriguez",
    "email": "jr@gmail.com",
    "phone_number": "404-585-8945",
    "street": "225 Baker St NW",
    "city": "Atlanta",
    "state": "Georgia",
    "zipcode": 30313,
    "latitude": 33.764,
    "longitude": -84.395,
    "dumpster_size": 15,
    "delivery_date": "Wed Dec 29 2021",
    "pickup_date": "Thu Dec 30 2021",
    "special_instructions": "Please come early",
    "delivery_completed": true,
    "pickup_completed": false,
    "user_id": "61c7483607e4533869b9ec08",
    "region_id": "61ca3cb19e9ade7351418e30",
    "type": "Order",
    "id": "62081ecb372c3b1526d69e14",
    "order_type": "Pickup"
  },
  {
    "name": "Doraville Transfer Station",
    "street": "2784 Woodwin Rd,",
    "city": "Atlanta",
    "state": "Georgia",
    "zipcode": 30360,
    "latitude": 33.918,
    "longitude": -84.275,
    "active": true,
    "user_id": "61c7483607e4533869b9ec08",
    "region_id": "61ca3cb19e9ade7351418e30",
    "type": "Landfill",
    "id": "62081eca372c3b1526d69df7"
  },
  {
    "name": "Doraville Transfer Station",
    "street": "2784 Woodwin Rd,",
    "city": "Atlanta",
    "state": "Georgia",
    "zipcode": 30360,
    "latitude": 33.918,
    "longitude": -84.275,
    "active": true,
    "user_id": "61c7483607e4533869b9ec08",
    "region_id": "61ca3cb19e9ade7351418e30",
    "type": "Landfill",
    "id": "62081eca372c3b1526d69df7"
  },
  {
    "delivery_time": {
      "hour": 12,
      "minute": 35,
      "am_pm": "AM"
    },
    "pickup_time": {
      "hour": 5,
      "minute": 45,
      "am_pm": "PM"
    },
    "name": "Daniel Carusi",
    "email": "d.carusi@gmail.com",
    "phone_number": "485-859-8569",
    "street": "690 Olde Rope Mill Park Rd",
    "city": "Woodstock",
    "state": "Georgia",
    "zipcode": 30188,
    "latitude": 34.131,
    "longitude": -84.523,
    "dumpster_size": 30,
    "delivery_date": "Thu Dec 30 2021",
    "pickup_date": "Wed Jan 05 2022",
    "special_instructions": "Please come early",
    "delivery_completed": false,
    "pickup_completed": false,
    "user_id": "61c7483607e4533869b9ec08",
    "region_id": "61ca3cb19e9ade7351418e30",
    "type": "Order",
    "id": "62081ecb372c3b1526d69e15",
    "order_type": "Delivery"
  },
  {
    "name": "Depot 1",
    "street": "2021, Dahlonega Highway",
    "city": "Cumming",
    "state": "Georgia",
    "zipcode": 30040,
    "latitude": 34.25,
    "longitude": -84.111,
    "active": true,
    "user_id": "61c7483607e4533869b9ec08",
    "region_id": "61ca3cb19e9ade7351418e30",
    "type": "Depot",
    "id": "61cdeb3f291ff09681e49c09"
  }
]